City,Lat,Lon,Max Temp,Humidity,Cloudiness,Wind Speed,County,Date
Pisco,-13.7,-76.22,63.0,82,0,13.87,PE,1602560253
Lompoc,34.64,-120.46,64.99,52,1,6.85,US,1602560096
Faanui,-16.48,-151.75,78.46,80,4,11.86,PF,1602560254
Norman Wells,65.28,-126.83,23.0,67,75,3.36,CA,1602560254
Ponta do Sol,32.67,-17.1,69.8,73,20,16.11,PT,1602560254
Bhasāwar,27.03,77.03,85.51,39,0,4.18,IN,1602560255
Port Alfred,-33.59,26.89,62.13,50,6,18.95,ZA,1602560255
Maniitsoq,65.42,-52.9,40.15,83,99,15.12,GL,1602560255
San Miguel,13.48,-88.18,75.74,89,100,1.88,SV,1602560255
Bluff,-46.6,168.33,55.99,70,71,3.0,NZ,1602560256
Skibbereen,51.55,-9.27,46.4,87,40,12.75,IE,1602560256
Wukari,7.85,9.78,72.93,95,25,7.74,NG,1602560256
George Town,5.41,100.34,75.2,94,40,3.36,MY,1602560256
Ouadda,8.08,22.4,69.13,93,99,4.07,CF,1602560256
Qaanaaq,77.48,-69.36,24.08,87,55,4.23,GL,1602560257
Mataura,-46.19,168.86,55.99,70,62,3.0,NZ,1602560257
Sterling,39.01,-77.43,55.99,93,90,6.93,US,1602560111
Hermanus,-34.42,19.23,57.99,92,92,5.01,ZA,1602560257
New Norfolk,-42.78,147.06,63.0,36,3,1.01,AU,1602560258
Kapaa,22.08,-159.32,84.2,74,40,5.82,US,1602560130
Rikitea,-23.12,-134.97,73.47,76,8,16.06,PF,1602560258
Santa Teresa del Tuy,10.23,-66.66,69.01,93,97,1.74,VE,1602560258
Dukat,62.55,155.55,33.87,78,100,6.46,RU,1602560259
Kahului,20.89,-156.47,89.6,49,40,14.99,US,1602560191
Albany,42.6,-73.97,53.01,68,99,9.22,US,1602560102
Yellowknife,62.46,-114.35,32.0,91,75,33.33,CA,1602560101
Ushuaia,-54.8,-68.3,48.2,61,75,4.7,AR,1602560259
Chegdomyn,51.12,133.02,37.4,67,66,13.15,RU,1602560260
Saint Paul Harbor,57.79,-152.41,44.6,81,90,3.09,US,1602560260
Clyde River,70.47,-68.59,28.4,100,90,3.36,CA,1602560260
Cape Town,-33.93,18.42,59.0,93,75,3.36,ZA,1602559986
Tortolì,39.93,9.66,54.93,68,35,6.49,IT,1602560261
Korla,41.76,86.15,56.48,34,0,6.87,CN,1602560262
Blackwater,-23.58,148.88,84.97,28,34,7.43,AU,1602560262
Magdalena,14.2,121.43,91.4,63,75,11.41,PH,1602559981
Letlhakeng,-24.09,25.03,57.36,79,0,7.83,BW,1602560262
Mar del Plata,-38.0,-57.56,48.0,100,1,1.52,AR,1602560163
Puerto Ayora,-0.74,-90.35,70.0,91,35,1.99,EC,1602559998
Grand Gaube,-20.01,57.66,75.0,81,5,5.99,MU,1602560263
Azuaga,38.27,-5.68,52.0,45,0,5.99,ES,1602560263
Tasiilaq,65.61,-37.64,41.0,86,100,23.04,GL,1602560263
Abu Samrah,35.3,37.18,61.0,76,6,4.05,SY,1602560264
Punta Arenas,-53.15,-70.92,42.8,87,75,26.4,CL,1602560264
Vaini,-21.2,-175.2,75.2,69,40,12.75,TO,1602560264
Linxia Chengguanzhen,35.6,103.21,39.25,87,100,6.4,CN,1602560265
Kendari,-3.94,122.5,86.5,62,52,6.35,ID,1602560265
Carnarvon,-24.87,113.63,73.4,73,0,14.99,AU,1602560265
Kaitangata,-46.28,169.85,53.01,76,90,8.99,NZ,1602560265
Zyryanskoye,56.83,86.63,39.2,96,100,5.23,RU,1602560265
Lebu,-37.62,-73.65,49.6,85,0,19.55,CL,1602560266
Ostrovnoy,68.05,39.51,42.1,86,100,21.74,RU,1602560266
Jamestown,42.1,-79.24,55.0,81,90,14.99,US,1602560266
Freetown,8.48,-13.23,76.86,84,100,2.71,SL,1602560069
Bela,25.93,81.98,86.09,64,6,6.49,IN,1602560267
Castro,-24.79,-50.01,59.4,70,0,2.46,BR,1602560267
Jizan,17.33,42.67,82.4,78,0,3.83,SA,1602560267
Arraial do Cabo,-22.97,-42.03,70.99,85,74,25.68,BR,1602560267
Paradise Valley,33.53,-111.94,87.8,17,1,3.36,US,1602560268
Taoudenni,22.68,-3.98,82.89,21,0,1.3,ML,1602560268
Shelburne,44.08,-80.2,57.2,82,90,13.87,CA,1602560268
Cabo San Lucas,22.89,-109.91,80.01,67,100,8.59,MX,1602560017
Chaman,30.92,66.45,56.82,28,0,5.5,PK,1602560269
Chokurdakh,70.63,147.92,21.42,94,85,7.4,RU,1602560269
Sioux Lookout,50.1,-91.92,41.0,80,5,3.36,CA,1602560243
Upernavik,72.79,-56.15,28.26,91,16,5.5,GL,1602560270
Bengkulu,-3.8,102.27,84.52,67,83,6.17,ID,1602560049
Gemeente Wageningen,51.97,5.67,48.0,100,90,5.82,NL,1602560270
Shimanovsk,52.0,127.7,32.05,88,100,9.86,RU,1602560270
Port Hedland,-20.32,118.57,104.0,20,0,13.87,AU,1602560270
Atuona,-9.8,-139.03,78.62,71,82,14.12,PF,1602560271
Marovoay,-16.1,46.63,75.2,94,20,4.7,MG,1602560271
Dikson,73.51,80.55,33.3,87,100,17.27,RU,1602560271
Wanaka,-44.7,169.15,59.5,49,65,12.41,NZ,1602560271
Chickasha,35.05,-97.94,57.2,54,1,6.02,US,1602560272
Oistins,13.07,-59.53,82.4,78,40,12.75,BB,1602560272
Bredasdorp,-34.53,20.04,59.0,87,68,10.29,ZA,1602560046
Nikolayevka,53.13,47.2,50.31,49,83,5.06,RU,1602560272
Fasa,28.94,53.65,44.6,26,0,8.25,IR,1602560273
Hermon,44.81,-68.91,32.0,92,1,2.08,US,1602560273
Butaritari,3.07,172.79,82.89,72,6,14.74,KI,1602560273
Busselton,-33.65,115.33,81.0,38,96,0.78,AU,1602560273
Lázaro Cárdenas,17.96,-102.2,79.29,80,94,3.65,MX,1602560274
Alofi,-19.06,-169.92,77.0,61,40,20.8,NU,1602560274
Leningradskiy,69.38,178.42,22.35,88,86,3.83,RU,1602560274
Aklavik,68.22,-135.01,21.2,73,90,8.05,CA,1602560274
Esperance,-33.87,121.9,73.4,49,2,11.41,AU,1602560275
Chimbote,-9.09,-78.58,61.18,90,56,4.65,PE,1602559976
Neiafu,-18.65,-173.98,77.0,69,75,12.75,TO,1602560275
Bubaque,11.28,-15.83,80.49,80,100,10.65,GW,1602560275
Cervo,43.67,-7.41,59.0,1,100,10.38,ES,1602560275
Bilibino,68.05,166.44,21.4,81,0,1.1,RU,1602560276
Thompson,55.74,-97.86,35.6,89,75,13.87,CA,1602560276
Russell,32.35,-85.2,71.6,94,1,3.15,US,1602560276
Tuktoyaktuk,69.45,-133.04,23.0,79,90,13.87,CA,1602560276
Saint-Philippe,-21.36,55.77,75.2,64,90,3.36,RE,1602560277
Meulaboh,4.14,96.13,83.34,68,94,5.08,ID,1602560277
São Joaquim,-28.29,-49.93,49.26,100,0,1.23,BR,1602560277
Geraldton,-28.77,114.6,73.4,64,90,11.41,AU,1602560278
Oktyabr'skoye,43.06,44.74,41.0,93,0,4.47,RU,1602560278
Hof,50.32,11.92,37.99,97,0,0.94,DE,1602560278
Hobart,-42.88,147.33,63.0,50,20,17.22,AU,1602560008
Cidreira,-30.18,-50.21,60.42,83,8,10.85,BR,1602560278
Hilo,19.73,-155.09,82.4,69,40,8.05,US,1602559867
Preston,53.77,-2.72,45.0,90,51,5.3,GB,1602560279
Atagay,55.1,99.39,35.51,71,95,4.09,RU,1602560279
Berlevåg,70.86,29.09,35.6,93,75,17.22,NO,1602560279
Tiksi,71.69,128.87,12.99,92,0,3.6,RU,1602560280
Saint George,37.1,-113.58,73.4,17,1,5.82,US,1602560248
Rocha,-34.48,-54.33,53.87,91,74,10.69,UY,1602560246
Lüderitz,-26.65,15.16,61.48,39,0,16.51,NA,1602560280
Bonavista,48.65,-53.11,39.99,85,13,8.01,CA,1602560281
Cayenne,4.93,-52.33,75.2,100,2,1.12,GF,1602560281
Avarua,-21.21,-159.78,71.6,83,85,9.17,CK,1602560281
Solnechnyy,50.72,136.63,42.94,56,51,8.34,RU,1602560282
Fram,-26.98,-55.88,60.44,69,0,5.93,PY,1602560282
Humaitá,-7.51,-63.02,78.24,60,73,2.39,BR,1602560282
Jalu,29.03,21.55,72.88,38,2,12.37,LY,1602560282
Chimoio,-19.12,33.48,60.8,100,75,4.65,MZ,1602560283
Waipawa,-41.41,175.52,62.6,72,2,18.34,NZ,1602560283
Khatanga,71.97,102.5,27.88,97,100,14.7,RU,1602560283
Portland,45.52,-122.68,57.99,79,77,4.72,US,1602559582
Barrow,71.29,-156.79,24.8,79,90,8.05,US,1602560284
Villamontes,-21.25,-63.5,80.02,33,100,3.22,BO,1602560284
Astoria,46.19,-123.83,53.6,93,1,3.36,US,1602560284
Puerto Madryn,-42.77,-65.04,62.78,35,3,5.17,AR,1602560284
Wanxian,30.8,108.39,72.77,64,79,4.54,CN,1602560285
Provideniya,64.38,-173.3,35.6,59,3,8.95,RU,1602560285
Margate,51.38,1.39,50.0,100,100,1.99,GB,1602560285
Colchester,51.89,0.9,46.99,99,54,7.85,GB,1602560285
Husavik,66.04,-17.34,37.4,74,14,9.17,IS,1602560285
Kruisfontein,-34.0,24.73,54.0,79,0,24.02,ZA,1602560286
Kpandae,8.47,-0.01,72.88,91,3,4.36,GH,1602560286
Airai,-8.93,125.41,79.38,44,100,6.22,TL,1602560287
Porangatu,-13.44,-49.15,75.47,76,16,3.91,BR,1602560287
Mitsamiouli,-11.38,43.28,79.84,80,1,7.74,KM,1602560287
Gari,59.43,62.35,42.13,76,100,9.19,RU,1602560288
Yulara,-25.24,130.99,87.8,8,14,19.46,AU,1602560288
Tuatapere,-46.13,167.68,55.99,70,91,3.0,NZ,1602560288
Kavaratti,10.57,72.64,81.86,80,100,18.32,IN,1602560289
Matata,-37.88,176.75,61.0,94,96,8.01,NZ,1602560289
Iqaluit,63.75,-68.51,19.4,92,5,10.29,CA,1602560289
Homer,59.64,-151.55,44.6,75,90,2.08,US,1602560110
Ilulissat,69.22,-51.1,33.8,69,100,5.82,GL,1602560289
Saskylakh,71.92,114.08,21.76,97,96,8.86,RU,1602560290
Burnie,-41.07,145.92,60.01,45,57,11.01,AU,1602560290
Egvekinot,66.32,-179.17,22.91,95,37,0.87,RU,1602560290
Bethel,41.37,-73.41,50.0,93,90,12.75,US,1602560290
Phan Thiet,10.93,108.1,81.66,80,100,6.55,VN,1602560290
Bāfq,31.61,55.41,56.35,25,0,0.76,IR,1602560291
Sambava,-14.27,50.17,75.18,86,23,6.53,MG,1602560291
Port Lincoln,-34.73,135.87,65.08,75,41,8.37,AU,1602560291
Ndola,-12.96,28.64,61.12,93,34,5.77,ZM,1602560291
Acapulco de Juárez,16.86,-99.89,79.63,79,43,3.65,MX,1602560291
Tayoltita,24.08,-105.93,69.94,63,94,3.11,MX,1602560292
Golub-Dobrzyń,53.11,19.05,39.0,76,100,6.11,PL,1602560292
Kerema,-7.96,145.78,83.79,75,57,10.13,PG,1602560292
Yumen,40.28,97.2,50.18,36,100,11.05,CN,1602560292
Pevek,69.7,170.31,24.62,91,25,10.36,RU,1602560292
Codrington,-38.27,141.97,57.06,76,79,13.0,AU,1602560293
Nanortalik,60.14,-45.24,37.31,93,100,13.53,GL,1602560293
Sabang,5.89,95.32,83.37,73,96,15.66,ID,1602560293
Coyhaique,-45.58,-72.07,53.6,66,90,13.87,CL,1602560294
San Rafael,-34.62,-68.33,67.17,25,0,8.59,AR,1602560294
Magadan,59.57,150.8,42.91,91,100,25.95,RU,1602560294
Hong Kong,22.29,114.16,80.01,82,100,5.01,HK,1602560282
Grenfell,-33.9,148.17,74.55,50,0,6.64,AU,1602560295
Harper,4.38,-7.72,75.67,88,73,6.29,LR,1602560295
San Patricio,28.02,-97.52,80.01,88,1,4.7,US,1602560295
Kudahuvadhoo,2.67,72.89,82.89,78,82,20.33,MV,1602560295
Marrakesh,31.63,-8.01,61.75,46,0,1.52,MA,1602560296
East London,-33.02,27.91,59.0,58,33,6.93,ZA,1602560296
Gachsaran,30.36,50.8,59.0,38,0,4.65,IR,1602560296
Cooma,-36.23,149.13,73.4,28,60,18.34,AU,1602560296
Dawlatabad,36.41,64.91,58.44,33,0,3.83,AF,1602560297
Chui,-33.7,-53.46,50.52,96,14,7.78,UY,1602560297
Noumea,-22.28,166.46,82.4,65,93,5.82,NC,1602560069
Carahue,-38.7,-73.17,46.4,100,20,2.24,CL,1602560297
Nikolskoye,59.7,30.79,48.2,87,75,4.47,RU,1602560298
La Palma,33.85,-118.05,79.0,47,1,3.36,US,1602560221
Mossamedes,-15.2,12.15,61.32,88,0,3.04,AO,1602560298
Te Anau,-45.42,167.72,50.79,63,93,8.59,NZ,1602560298
Hithadhoo,-0.6,73.08,82.2,72,22,13.51,MV,1602560298
Mount Isa,-20.73,139.5,98.6,14,0,4.7,AU,1602560299
Katsuura,35.13,140.3,79.0,88,75,6.93,JP,1602560299
Katra,32.98,74.95,73.4,53,5,5.82,IN,1602560299
Coquimbo,-29.95,-71.34,53.6,87,2,3.36,CL,1602560299
Orapa,-21.28,25.37,62.85,75,0,10.63,BW,1602560299
Mazyr,52.05,29.25,53.69,88,98,9.17,BY,1602560300
Salalah,17.02,54.09,75.2,78,0,3.36,OM,1602560300
Flin Flon,54.77,-101.86,35.08,86,100,15.14,CA,1602560300
Pacific Grove,36.62,-121.92,66.2,55,1,5.86,US,1602560027
Bambous Virieux,-20.34,57.76,75.0,83,75,8.05,MU,1602560301
Viedma,-40.81,-63.0,61.0,56,0,3.0,AR,1602560301
Sol'vychegodsk,61.33,46.92,42.4,94,34,6.89,RU,1602560301
Narsaq,60.92,-46.05,39.2,90,99,12.75,GL,1602560301
Muroto-misakicho,33.28,134.15,80.6,47,20,10.29,JP,1602560302
Flinders,-34.58,150.86,84.99,39,3,4.0,AU,1602560302
Fortuna,40.6,-124.16,57.99,100,1,6.93,US,1602560302
Vardø,70.37,31.11,37.4,86,75,12.75,NO,1602560302
Tautira,-17.73,-149.15,80.6,69,40,12.75,PF,1602560302
Asunción,-25.3,-57.64,78.8,39,0,13.87,PY,1602560011
Yangi Marg`ilon,40.43,71.72,51.8,71,0,4.7,UZ,1602560303
Mahébourg,-20.41,57.7,73.4,83,75,8.05,MU,1602560303
Srednekolymsk,67.45,153.68,34.12,75,15,5.75,RU,1602560303
Nortelândia,-14.45,-56.8,73.49,73,56,0.96,BR,1602560303
Oktyabr'skiy,54.48,53.47,45.39,55,100,8.1,RU,1602560304
Vista Hermosa,19.52,-99.22,64.4,63,75,8.05,MX,1602560117
Yangambi,0.81,24.43,68.58,99,99,1.74,CD,1602560304
Santa Maria,-29.68,-53.81,53.02,94,2,2.33,BR,1602560304
Dubna,56.73,37.17,47.82,95,100,4.32,RU,1602560305
Port Elizabeth,-33.92,25.57,60.8,72,4,26.4,ZA,1602560305
Los Llanos de Aridane,28.66,-17.92,77.0,38,6,8.05,ES,1602560305
Auki,-8.77,160.7,84.49,71,100,10.45,SB,1602560305
Chapais,49.78,-74.85,39.2,64,1,13.87,CA,1602560305
Sinnamary,5.38,-52.95,79.93,82,0,10.33,GF,1602560305
Tarauacá,-8.16,-70.77,78.94,57,91,1.39,BR,1602560306
Guerrero Negro,27.98,-114.06,75.72,61,0,8.84,MX,1602560201
Luganville,-15.53,167.17,82.4,83,75,9.17,VU,1602560306
Isangel,-19.55,169.27,82.4,78,90,9.17,VU,1602560306
Vanavara,60.34,102.28,26.13,84,81,5.84,RU,1602560307
Lavaca,28.61,-96.63,78.8,78,1,7.9,US,1602560307
Tena,-0.98,-77.82,66.81,82,99,4.36,EC,1602560307
Bar Harbor,44.39,-68.2,48.0,100,1,8.05,US,1602560307
Poway,32.96,-117.04,75.99,43,1,4.7,US,1602560308
Tyup,42.73,78.36,46.99,52,0,1.77,KG,1602560308
Choix,26.71,-108.32,80.46,56,100,2.59,MX,1602560308
Tilichiki,60.47,166.1,37.33,79,48,2.71,RU,1602560308
Yuncheng,35.02,110.99,56.03,89,100,2.01,CN,1602560308
Le Port,-20.94,55.29,75.2,64,90,12.75,RE,1602560309
Torbay,47.67,-52.73,41.0,86,40,6.93,CA,1602560309
Linguère,15.4,-15.12,81.45,67,100,3.53,SN,1602560309
Curup,-3.47,102.53,86.86,43,79,1.54,ID,1602560309
Ribeira Grande,38.52,-28.7,68.9,72,15,13.76,PT,1602560310
Ambon City,-3.7,128.18,86.0,74,40,5.82,ID,1602560310
Kutum,14.2,24.67,75.34,21,66,7.52,SD,1602560310
São Gabriel da Cachoeira,-0.13,-67.09,73.45,91,29,0.96,BR,1602560158
Quatre Cocos,-20.21,57.76,75.0,83,75,8.05,MU,1602560310
Matagami,49.75,-77.63,51.8,66,75,19.46,CA,1602560311
Port Augusta,-32.5,137.77,87.01,68,0,6.93,AU,1602560311
Magaria,13.0,8.91,82.49,20,0,7.87,NE,1602560311
Cherskiy,68.75,161.3,24.87,87,16,7.7,RU,1602560311
Jupiter,26.93,-80.09,78.01,100,55,4.81,US,1602560312
Puerto Escondido,15.85,-97.07,80.6,65,40,3.22,MX,1602560312
Balkanabat,39.51,54.37,64.72,24,0,17.43,TM,1602560312
Lagoa,39.05,-27.98,68.88,72,18,12.39,PT,1602560312
Ancud,-41.87,-73.82,48.0,93,20,4.7,CL,1602560312
Zanjān,36.67,48.48,42.8,35,0,6.93,IR,1602560224
Vila Velha,-20.33,-40.29,73.0,100,90,3.36,BR,1602560313
Naryan-Mar,67.67,53.09,41.16,94,100,5.37,RU,1602560313
North Bend,43.41,-124.22,57.99,100,1,3.51,US,1602560266
Mēga,4.05,38.3,63.28,87,97,6.6,ET,1602560313
Mount Gambier,-37.83,140.77,62.6,59,75,12.75,AU,1602560230
Nosy Varika,-20.58,48.53,75.85,85,37,6.42,MG,1602560314
Kindu,-2.95,25.95,69.46,98,99,0.98,CD,1602560314
Santa Rosalía,27.32,-112.28,79.41,60,42,1.5,MX,1602560314
Imbituba,-28.24,-48.67,66.2,88,0,6.93,BR,1602560237
Makassar,-5.14,119.42,93.2,49,20,6.93,ID,1602560315
Kirakira,-10.45,161.92,82.17,79,100,12.57,SB,1602560315
São Filipe,14.9,-24.5,77.36,79,5,5.75,CV,1602560315
Verkhoyansk,67.54,133.38,20.32,93,100,4.07,RU,1602560316
Ambilobe,-13.2,49.05,79.02,65,0,5.48,MG,1602560316
Hamilton,39.18,-84.53,55.99,82,90,19.46,US,1602560316
Kaeo,-35.1,173.78,61.29,94,99,7.85,NZ,1602560316
Simpang,-1.27,104.08,89.65,56,100,5.3,ID,1602560317
Krasnoarmiys'k,48.28,37.18,56.01,84,78,8.23,UA,1602560317
Shingū,33.73,135.98,78.8,50,20,16.11,JP,1602560317
Departamento de Maldonado,-34.67,-54.92,55.99,93,90,14.99,UY,1602560317
Klyuchi,52.27,79.17,49.57,62,90,10.22,RU,1602560317
Domna,51.9,113.16,32.0,76,1,11.18,RU,1602560318
Ilinge,-31.98,27.04,53.64,35,35,6.29,ZA,1602560318
Gigmoto,13.78,124.39,86.47,67,75,8.77,PH,1602560318
Khuzhir,53.19,107.34,31.21,77,0,3.11,RU,1602560318
Saint-Pierre,-21.34,55.48,75.2,64,90,3.36,RE,1602560318
Moose Factory,51.26,-80.61,53.6,62,90,12.75,CA,1602560319
Ahipara,-35.17,173.17,61.38,88,77,7.9,NZ,1602560319
San Juan,-31.54,-68.54,62.51,30,0,5.37,AR,1602560319
Sitka,57.05,-135.33,46.4,81,90,6.93,US,1602560319
Koróni,36.8,21.95,68.0,94,75,3.36,GR,1602560319
Tigre,-34.43,-58.58,60.01,87,0,4.7,AR,1602560320
Kortkeros,61.81,51.58,42.8,75,40,6.71,RU,1602560320
Dingle,11.0,122.67,85.59,76,100,8.03,PH,1602560320
Labuan,5.28,115.24,82.4,78,20,2.24,MY,1602560320
Longyearbyen,78.22,15.64,24.8,68,75,3.02,SJ,1602560320
Lorengau,-2.02,147.27,83.68,75,100,3.78,PG,1602560320
Antofagasta,-23.65,-70.4,59.0,77,90,4.7,CL,1602560118
Nyurba,63.28,118.33,26.01,90,54,5.75,RU,1602560321
Natal,-5.79,-35.21,71.6,94,20,3.36,BR,1602560280
Constitución,-35.33,-72.42,54.82,63,0,9.57,CL,1602560140
Koslan,63.46,48.9,41.5,94,58,7.54,RU,1602560321
Nantucket,41.28,-70.1,57.0,84,90,16.11,US,1602560193
Batagay,67.63,134.63,19.4,93,100,3.49,RU,1602560322
Anadyr,64.75,177.48,30.2,80,20,8.95,RU,1602560322
Poum,-20.23,164.02,78.21,79,11,16.46,NC,1602560322
Porto Santo,33.07,-16.34,69.8,77,20,12.75,PT,1602560323
Dhidhdhoo,6.88,73.1,83.19,75,99,23.4,MV,1602560323
San Miguel de Tucumán,-26.82,-65.22,71.6,40,4,5.82,AR,1602560323
Kalmunai,7.42,81.82,88.2,49,32,8.16,LK,1602560323
Kiunga,-6.12,141.29,89.01,65,99,3.8,PG,1602560323
Beringovskiy,63.05,179.32,27.72,93,18,10.31,RU,1602560323
College,64.86,-147.8,32.0,83,75,5.82,US,1602560324
Soyo,-6.13,12.37,74.79,84,99,9.19,AO,1602560324
Dargaville,-35.93,173.88,60.01,86,87,6.71,NZ,1602560324
Taksimo,56.34,114.88,27.34,74,14,6.08,RU,1602560324
Sitrah,26.15,50.62,82.4,45,0,3.76,BH,1602560324
Chokwé,-24.53,32.98,60.78,88,17,3.76,MZ,1602560325
Dodola,6.98,39.18,50.99,84,2,2.1,ET,1602560325
Henties Bay,-22.12,14.28,57.0,85,0,4.0,NA,1602560325
Iquitos,-3.75,-73.25,72.46,87,100,2.48,PE,1602560325
Labytnangi,66.66,66.42,37.87,91,100,7.14,RU,1602560326
Bima,-8.47,118.72,95.68,38,78,3.76,ID,1602560326
Cabedelo,-6.98,-34.83,73.4,94,20,5.82,BR,1602560326
Quelimane,-17.88,36.89,73.4,94,75,4.7,MZ,1602560326
Guilin,25.28,110.29,80.6,54,2,13.42,CN,1602560327
Somotillo,13.04,-86.91,75.88,85,100,2.55,NI,1602560327
Brae,60.4,-1.35,50.0,76,22,24.16,GB,1602560327
Icod de los Vinos,28.37,-16.71,75.2,23,3,9.17,ES,1602560327
Santiago del Estero,-27.8,-64.26,65.07,40,0,6.51,AR,1602560327
Estelle,29.85,-90.11,78.01,100,1,5.82,US,1602560328
Unguía,8.04,-77.09,75.42,92,100,1.32,CO,1602560328
Lesosibirsk,58.24,92.48,33.15,95,100,8.79,RU,1602560328
Yerbogachën,61.28,108.01,28.18,81,100,11.68,RU,1602560328
Altay,47.87,88.12,37.0,76,97,4.05,CN,1602560328
Keelung,25.13,121.74,79.0,94,75,14.99,TW,1602560329
Bereda,43.27,-7.54,60.01,100,100,3.0,ES,1602560329
Najrān,17.49,44.13,60.8,38,13,1.68,SA,1602560329
Esmeralda,21.85,-78.12,77.0,94,82,6.93,CU,1602560329
Itarema,-2.92,-39.92,76.6,84,0,14.09,BR,1602560330
Balabac,7.99,117.06,83.98,77,90,8.19,PH,1602560330
Hasaki,35.73,140.83,79.0,73,75,12.75,JP,1602560330
Barbate,36.19,-5.92,64.4,82,0,10.29,ES,1602560330
Vung Tau,10.35,107.08,80.15,82,100,6.35,VN,1602560309
Klaksvík,62.23,-6.59,44.6,93,52,2.24,FO,1602560331
Kiryat Gat,31.61,34.76,71.01,77,20,3.09,IL,1602560331
Mitú,1.2,-70.17,72.73,91,91,0.85,CO,1602560331
Nishihara,26.18,127.76,84.2,48,75,9.17,JP,1602560332
Houma,29.6,-90.72,75.2,94,40,4.56,US,1602560332
Namie,37.48,141.0,73.0,77,56,1.99,JP,1602560332
Maceió,-9.67,-35.74,71.6,94,40,3.36,BR,1602560332
São Miguel do Araguaia,-13.28,-50.16,78.06,63,7,6.67,BR,1602560332
Touros,-5.2,-35.46,71.6,94,20,3.36,BR,1602560333
Carthage,36.86,10.33,57.2,82,40,5.82,TN,1602560333
El Alto,-4.27,-81.21,62.65,89,7,13.2,PE,1602560333
Morehead,37.27,-87.18,55.4,93,1,5.19,US,1602560333
Machinga,-15.17,35.3,68.54,82,75,2.06,MW,1602560333
Bathsheba,13.22,-59.52,82.4,78,40,12.75,BB,1602560333
Kajaani,64.23,27.73,39.2,100,75,3.36,FI,1602560334
Araouane,18.9,-3.53,88.97,26,46,6.85,ML,1602560334
Lavrentiya,65.58,-171.0,31.39,91,0,10.29,RU,1602560062
Emerald,-23.53,148.17,84.2,32,59,11.41,AU,1602560334
Moura,38.14,-7.45,51.8,62,0,2.24,PT,1602560334
Houston,29.76,-95.36,81.0,50,90,11.41,US,1602560214
La Ronge,55.1,-105.28,35.6,74,90,24.16,CA,1602560335
Tabory,58.52,64.55,42.82,77,100,7.67,RU,1602560335
Kargil,34.57,76.1,42.75,53,0,2.28,IN,1602560335
Greytown,-29.06,30.59,51.03,82,0,4.0,ZA,1602560335
Bodmin,50.47,-4.72,50.0,71,30,20.8,GB,1602560336
Murgab,37.5,61.97,44.6,48,0,4.63,TM,1602560336
Broome,42.25,-75.83,52.0,87,90,14.99,US,1602560336
Kuril'sk,45.23,147.88,58.06,94,100,13.09,RU,1602560336
Rio Grande,-32.03,-52.1,54.95,89,1,10.38,BR,1602560337
Corn Island,12.17,-83.04,83.79,71,93,4.54,NI,1602560337
Nome,64.5,-165.41,35.6,43,1,16.11,US,1602560098
Cedar City,37.68,-113.06,60.8,19,1,5.82,US,1602560236
Palatka,29.65,-81.64,75.0,1,84,1.99,US,1602560337
Foz,43.57,-7.25,59.0,1,100,5.84,ES,1602560338
Sinjār,36.32,41.88,66.04,26,0,1.54,IQ,1602560338
Neuquén,-38.95,-68.06,57.2,71,0,5.48,AR,1602560134
Ginda,30.69,78.49,73.4,83,0,4.29,IN,1602560338
Laramie,41.31,-105.59,53.01,23,1,26.4,US,1602560218
Turukhansk,65.82,87.98,24.03,97,98,14.2,RU,1602560339
Omboué,-1.57,9.26,74.73,89,100,7.72,GA,1602560340
Sechenovo,55.22,45.89,48.56,90,35,5.82,RU,1602560340
Souillac,-20.52,57.52,73.4,83,75,8.05,MU,1602560340
Keta,5.92,0.99,71.6,94,40,2.24,GH,1602560340
Tõrva,58.0,25.93,46.4,87,100,2.24,EE,1602560341
Samarai,-10.62,150.67,81.9,81,43,12.35,PG,1602560341
Alta Floresta,-9.88,-56.09,69.31,92,99,3.62,BR,1602560303
Kupang,-10.17,123.58,93.2,41,20,6.93,ID,1602560341
Matara,5.95,80.54,83.03,75,34,18.45,LK,1602560341
Port Hueneme,34.15,-119.2,71.01,77,1,1.28,US,1602560342
Yangjiang,21.85,111.97,75.04,81,100,23.35,CN,1602560342
Deūlgaon Rāja,20.02,76.03,80.6,83,40,2.24,IN,1602560304
Garoowe,8.41,48.48,77.05,72,33,6.8,SO,1602560343
Tabuk,17.42,121.44,85.86,65,72,4.34,PH,1602560343
Ajdabiya,30.76,20.23,72.63,88,1,15.9,LY,1602560345
Andenes,69.31,16.12,39.2,86,81,10.29,NO,1602560347
Port Macquarie,-31.43,152.92,78.8,47,0,16.11,AU,1602560347
Agadez,19.75,10.25,75.49,19,0,5.77,NE,1602560347
Port Hardy,50.7,-127.42,48.2,93,90,4.7,CA,1602560347
Kemijärvi,66.71,27.43,36.99,91,88,5.46,FI,1602560348
Powell,40.16,-83.08,55.99,93,90,17.22,US,1602560170
Bulungu,-4.55,18.6,70.47,95,100,2.33,CD,1602560348
Ternate,0.8,127.4,80.62,79,98,4.74,ID,1602560349
Aztec,36.82,-107.99,59.0,15,1,3.47,US,1602560349
Xining,36.62,101.77,39.29,82,100,3.65,CN,1602560349
Aksu,41.12,80.26,58.15,32,0,0.58,CN,1602560349
Diamantino,-14.41,-56.45,74.21,75,97,1.77,BR,1602560349
Fayaoué,-20.65,166.53,75.96,84,73,15.9,NC,1602560328
Hengshui,37.73,115.7,73.22,20,0,8.25,CN,1602560350
Palmer,42.16,-72.33,52.0,81,90,9.17,US,1602560350
Båtsfjord,70.63,29.72,37.4,86,75,12.75,NO,1602560350
Kuytun,54.34,101.5,31.46,79,42,7.87,RU,1602560350
Cockburn Town,21.46,-71.14,83.21,78,37,13.62,TC,1602560351
Kavieng,-2.57,150.8,84.06,71,63,4.99,PG,1602560351
Bilma,18.69,12.92,81.25,20,4,5.44,NE,1602560351
Gushi,34.64,109.58,53.22,90,100,3.42,CN,1602560351
Salisbury,51.07,-1.8,44.6,100,2,9.17,GB,1602560165
Asău,46.43,26.4,57.99,99,100,3.96,RO,1602560352
Kumul,42.8,93.45,54.07,38,89,8.55,CN,1602560352
Vygonichi,53.1,34.07,46.4,100,90,6.71,RU,1602560352
Santa Cruz,30.42,-9.6,59.0,93,44,4.7,MA,1602560352
Morros,-9.45,-46.3,75.34,70,6,0.16,BR,1602560352
Chaiyaphum,15.75,102.0,74.53,85,100,0.98,TH,1602560352
Fairlie,55.76,-4.86,43.0,93,45,4.7,GB,1602560353
Marzuq,14.4,46.47,73.67,29,0,0.89,YE,1602560353
Terråk,65.09,12.37,39.2,100,2,1.12,NO,1602560353
Mucurapo,10.67,-61.53,78.01,94,20,6.24,TT,1602560353
Kodār,16.98,79.97,74.59,96,100,15.52,IN,1602560353
Keffi,8.85,7.87,71.6,94,14,2.24,NG,1602560354
Alugan,12.22,125.48,82.47,83,100,10.74,PH,1602560354
Pangody,65.85,74.49,33.76,90,98,6.22,RU,1602560354
Izhma,65.01,53.91,43.72,91,98,6.78,RU,1602560354
Gweta,-20.18,25.23,68.49,67,0,7.74,BW,1602560355
Adrar,20.5,-10.07,83.7,41,81,9.22,MR,1602560355
Fuzhou,26.06,119.31,75.2,69,90,22.37,CN,1602560355
Tromsø,69.65,18.96,35.6,83,60,6.93,NO,1602560331
Pitsunda,43.16,40.34,68.0,71,0,11.18,GE,1602560355
Seddon,-37.81,144.89,62.01,67,90,13.87,AU,1602560355
Clarence Town,-32.58,151.78,87.01,28,0,11.41,AU,1602560356
Ramotswa,-24.87,25.87,57.2,93,75,6.93,BW,1602560356
Contamana,-7.33,-75.02,77.99,59,58,0.74,PE,1602560356
Boende,-0.22,20.87,69.04,98,87,2.53,CD,1602560356
Karratha,-20.74,116.85,97.9,18,0,10.02,AU,1602560356
Concarneau,47.88,-3.92,51.8,87,75,8.05,FR,1602560357
‘Ewa Beach,21.32,-158.01,86.0,55,20,8.05,US,1602560357
Nara,34.69,135.8,78.8,47,20,5.82,JP,1602560080
Gandorhun,7.5,-11.83,73.62,96,100,0.58,SL,1602560357
Saquena,-4.67,-73.52,74.89,83,99,2.62,PE,1602560358
Tomatlán,19.93,-105.25,74.12,93,100,3.67,MX,1602560358
Hambantota,6.12,81.12,87.8,66,40,19.46,LK,1602560358
Qasigiannguit,68.82,-51.19,33.8,69,100,5.82,GL,1602560359
Mormugao,15.4,73.8,78.8,88,75,3.36,IN,1602560359
Olafsvik,64.89,-23.71,44.46,85,38,12.01,IS,1602560359
Marawi,8.0,124.29,77.88,82,100,4.09,PH,1602560359
Southbridge,42.08,-72.03,51.01,92,100,11.39,US,1602560359
Talnakh,69.49,88.4,28.4,92,40,4.47,RU,1602560360
Mala,-12.66,-76.63,63.88,78,4,8.08,PE,1602560360
Taitung City,22.76,121.14,87.8,58,20,11.41,TW,1602560360
Saldanha,-33.01,17.94,57.2,82,46,2.24,ZA,1602560360
Havøysund,71.0,24.66,35.6,80,75,13.87,NO,1602560361
Deputatsky,69.3,139.9,15.48,97,100,3.42,RU,1602560361
Fort Nelson,58.81,-122.7,35.6,88,90,3.36,CA,1602560361
Buala,-8.14,159.59,83.7,77,100,12.3,SB,1602560361
Kānkon,15.02,74.02,78.8,88,75,3.36,IN,1602560361
